Town,Per capita income,Location,Lat,Lon,County
"Far Hills, Somerset County, New Jersey","$81,535 ","Far Hills, Somerset County, New Jersey, USA",40.684268,-74.6357148,Somerset County
"Harding Township, Morris County, New Jersey","$72,689 ","Harding Township, Morris County, New Jersey, 07976, USA",40.743647,-74.50209229,Morris County
"Bernardsville, Somerset County, New Jersey","$69,854 ","Bernardsville, Somerset County, New Jersey, 07924, USA",40.7186805,-74.5692273,Somerset County
"Chatham Township, Morris County, New Jersey","$65,497 ","Chatham Township, Morris County, New Jersey, USA",40.73012395,-74.42511146,Morris County
"Tewksbury Township, Hunterdon County, New Jersey","$65,470 ","Tewksbury Township, Hunterdon County, New Jersey, USA",40.68446,-74.77872997,Hunterdon County
"Mountain Lakes, Morris County, New Jersey","$65,086 ","Mountain Lakes, Morris County, New Jersey, 07046, USA",40.8948212,-74.4329314,Morris County
"Mendham Township, Morris County, New Jersey","$61,460 ","Mendham Township, Morris County, New Jersey, USA",40.77872315,-74.56430241,Morris County
"Watchung, Somerset County, New Jersey","$58,653 ","Watchung, Somerset County, New Jersey, 07069, United States of America",40.6378801,-74.4509863,Somerset County
"Peapack-Gladstone, Somerset County, New Jersey","$56,542 ","Peapack-Gladstone, Somerset County, New Jersey, USA",40.717783,-74.65885196,Somerset County
"Bernards Township, Somerset County, New Jersey","$56,521 ","Bernards Township, Somerset County, New Jersey, USA",40.676207,-74.56335485,Somerset County
"Chester Township, Morris County, New Jersey","$55,353 ","Chester Township, Morris County, New Jersey, USA",40.78028655,-74.66720906,Morris County
"Morris Township, Morris County, New Jersey","$54,782 ","Morris Township, Morris County, New Jersey, USA",40.798799,-74.52084688,Morris County
"Bedminster Township, Somerset County, New Jersey","$53,549 ","Bedminster Township, Somerset County, New Jersey, USA",40.672849,-74.67769577,Somerset County
"Chatham, Morris County, New Jersey","$53,027 ","Chatham, Morris County, New Jersey, USA",40.7409242,-74.3836711,Morris County
"Warren Township, Somerset County, New Jersey","$49,475 ","Warren Township, Somerset County, New Jersey, USA",40.6306575,-74.52266908,Somerset County
"Montgomery Township, Somerset County, New Jersey","$48,699 ","Montgomery Township, Somerset County, New Jersey, USA",40.423478,-74.68626033,Somerset County
"Mendham, Morris County, New Jersey","$48,629 ","Mendham, Morris County, New Jersey, 07945, USA",40.7759334,-74.6007142,Morris County
"Rocky Hill, Somerset County, New Jersey","$48,357 ","Rocky Hill, Somerset County, New Jersey, 08553, USA",40.3998283,-74.6343244,Somerset County
"Allamuchy-Panther Valley, Warren County, New Jersey","$45,829 ","Allamuchy-Panther Valley, I 80, Long Bridge, Warren County, New Jersey, 07820, USA",40.916737,-74.82567366,Warren County
"Kinnelon, Morris County, New Jersey","$45,796 ","Kinnelon, Morris County, New Jersey, USA",41.0017644,-74.367096,Morris County
"Boonton Township, Morris County, New Jersey","$45,014 ","Boonton Township, Morris County, New Jersey, USA",40.9304681,-74.42844513,Morris County
"Allamuchy Township, Warren County, New Jersey","$43,552 ","Allamuchy, Warren County, New Jersey, 07820, USA",40.921765,-74.8101665,Warren County
"Montville, Morris County, New Jersey","$43,341 ","Montville, Morris County, New Jersey, 07045, USA",40.9148209,-74.383763,Morris County
"Randolph, Morris County, New Jersey","$43,072 ","Randolph Township, Morris County, New Jersey, USA",40.844265,-74.58572175,Morris County
"Long Hill Township, Morris County, New Jersey","$42,613 ","Long Hill Township, Morris County, New Jersey, USA",40.683393,-74.49043038,Morris County
"Chester, Morris County, New Jersey","$42,564 ","Chester, Morris County, New Jersey, USA",40.7842667,-74.6968284,Morris County
"Florham Park, Morris County, New Jersey","$42,133 ","Florham Park, Morris County, New Jersey, 07932, USA",40.787878,-74.3882072,Morris County
"Branchburg Township, Somerset County, New Jersey","$41,241 ","Branchburg Township, Somerset County, New Jersey, 08853, USA",40.5688245,-74.70027389,Somerset County
"Readington, Hunterdon County, New Jersey","$41,000 ","Readington, Hunterdon County, New Jersey, 08853, USA",40.5687141,-74.7376619,Hunterdon County
"Franklin Township, Hunterdon County, New Jersey","$39,668 ","Franklin Township, Hunterdon County, New Jersey, USA",40.567858,-74.9311225,Hunterdon County
"Bridgewater Township, New Jersey","$39,555 ","Bridgewater Township, Somerset County, New Jersey, USA",40.596061,-74.60386079,Somerset County
"Raritan Township, New Jersey","$38,919 ","Raritan Township, Hunterdon County, New Jersey, 08822, USA",40.510522,-74.89952004,Hunterdon County
"Whitehouse Station, New Jersey","$38,627 ","Whitehouse Station, Hunterdon County, New Jersey, 08889, USA",40.61538,-74.7704409,Hunterdon County
"Denville Township, New Jersey","$38,607 ","Denville Public Library, 121, Diamond Spring Road, Denville, Morris County, New Jersey, 07834, USA",40.8965247,-74.47343785,Morris County
"Madison, New Jersey","$38,416 ","Madison, Morris County, New Jersey, USA",40.7598227,-74.417097,Morris County
"Delaware Township, New Jersey","$38,285 ","Delaware Township, Hunterdon County, New Jersey, USA",40.4482545,-74.94148642,Hunterdon County
"Hanover Township, New Jersey","$37,708 ","Hanover Township, Morris County, New Jersey, USA",40.81817135,-74.43171616,Morris County
"Washington Township, Morris County, New Jersey","$37,489 ","Washington Township, Morris County, New Jersey, USA",40.78489145,-74.80733627,Morris County
"Clinton, New Jersey","$37,463 ","Clinton, Hunterdon County, New Jersey, 08809, USA",40.6362878,-74.9116603,Hunterdon County
"Green Brook Township, New Jersey","$37,290 ","Green Brook Township, Somerset County, New Jersey, 08812, USA",40.6074445,-74.47920014,Somerset County
"Clinton Township, New Jersey","$37,264 ","Clinton Township, Hunterdon County, New Jersey, USA",40.63378,-74.8503141,Hunterdon County
"East Amwell Township, New Jersey","$37,187 ","East Amwell Township, Hunterdon County, New Jersey, 08551, USA",40.434946,-74.83010115,Hunterdon County
"Sparta Township, New Jersey","$36,910 ","Sparta, Sussex County, New Jersey, 07871, USA",41.0401567,-74.6310081,Sussex County
"Long Valley, New Jersey","$36,711 ","Long Valley, Morris County, New Jersey, 07853, USA",40.7859331,-74.7801645,Morris County
"Morris Plains, New Jersey","$36,553 ","Morris Plains, Morris County, New Jersey, 07950, USA",40.8364845,-74.47818854,Morris County
"Lambertville, New Jersey","$36,267 ","Lambertville, Hunterdon County, New Jersey, 08530:18938, USA",40.3659394,-74.9429448,Hunterdon County
"Bethlehem Township, New Jersey","$35,298 ","Bethlehem Township, Hunterdon County, New Jersey, USA",40.66859885,-75.01027786,Hunterdon County
"Alexandria Township, New Jersey","$34,622 ","Alexandria Township, Hunterdon County, New Jersey, 08867, USA",40.591754,-75.01350455,Hunterdon County
"Lebanon, New Jersey","$34,066 ","Lebanon, Hunterdon County, New Jersey, USA",40.6417683,-74.8359987,Hunterdon County
"West Amwell Township, New Jersey","$33,877 ","West Amwell Township, Hunterdon County, New Jersey, 08530, USA",40.3821838,-74.88720903,Hunterdon County
"Rockaway Township, New Jersey","$33,184 ","Rockaway Township, Morris County, New Jersey, USA",40.9613178,-74.49224451,Morris County
"Hillsborough Township, New Jersey","$33,091 ","Hillsborough Township, Somerset County, New Jersey, USA",40.498516,-74.69516247,Somerset County
"White Meadow Lake, New Jersey","$32,596 ","White Meadow Lake, Morris County, New Jersey, 07866, USA",40.9237098,-74.5107121,Morris County
"Brass Castle, New Jersey","$32,393 ","Brass Castle, Warren County, New Jersey, 07882, USA",40.7648213,-75.0110055,Warren County
"Mount Arlington, New Jersey","$32,222 ","Mount Arlington, Morris County, New Jersey, 07856, USA",40.9259319,-74.6348829,Morris County
"Parsippany-Troy Hills Township, New Jersey","$32,220 ","Parsippany-Troy Hills, Morris County, New Jersey, USA",40.8646542,-74.4157768,Morris County
"Succasunna-Kenvil, New Jersey","$31,923 ","Succasunna-Kenvil, Unneberg Avenue, Roxbury Township, Morris County, New Jersey, 07876, USA",40.8583235,-74.6525666,Morris County
"Pequannock Township, New Jersey","$31,892 ","Pequannock Township, Morris County, New Jersey, USA",40.9627327,-74.30506993,Morris County
"Fredon Township, New Jersey","$31,430 ","Fredon, Sussex County, New Jersey, 07860, USA",41.0392638,-74.8087781,Sussex County
"Franklin Township, Somerset County, New Jersey","$31,209 ","Franklin Township, Somerset County, New Jersey, USA",40.4644745,-74.5420888,Somerset County
"Riverdale, New Jersey","$31,187 ","Riverdale, Morris County, New Jersey, 07457, USA",40.9939865,-74.3034824,Morris County
"Califon, New Jersey","$31,064 ","Califon, Hunterdon County, New Jersey, USA",40.7195448,-74.8357215,Hunterdon County
"Lebanon Township, New Jersey","$30,793 ","Lebanon Township, Hunterdon County, New Jersey, 08826, USA",40.729147,-74.897122,Hunterdon County
"Byram Township, New Jersey","$30,710 ","Byram, Hunterdon County, New Jersey, 18950, USA",40.4237156,-75.059615,Hunterdon County
"Millstone, New Jersey","$30,694 ","Millstone, Somerset County, New Jersey, USA",40.4992707,-74.5887679,Somerset County
"Lafayette Township, New Jersey","$30,491 ","Lafayette, Sussex County, New Jersey, 07848, USA",41.0984301,-74.6884965,Sussex County
"Lincoln Park, New Jersey","$30,389 ","Lincoln Park, Morris County, New Jersey, 07035, USA",40.9242652,-74.3020933,Morris County
"Kingwood Township, New Jersey","$30,219 ","Kingwood Township, Hunterdon County, New Jersey, 08825, USA",40.48650505,-75.01629063,Hunterdon County
"Annandale, New Jersey","$30,176 ","Annandale, Hunterdon County, New Jersey, 08801, USA",40.6409348,-74.881278,Hunterdon County
"Roxbury Township, New Jersey","$30,174 ","Roxbury Township, Morris County, New Jersey, USA",40.8829709,-74.65494077,Morris County
"Morristown, New Jersey","$30,086 ","Morristown, Morris County, New Jersey, 07960, USA",40.7970384,-74.4809492,Morris County
"Hardwick Township, New Jersey","$30,038 ","Hardwick, Warren County, New Jersey, USA",41.054541,-74.9321157,Warren County
"Boonton, New Jersey","$29,919 ","Boonton, Morris County, New Jersey, 07005, USA",40.9025989,-74.4070971,Morris County
"Union Township, Hunterdon County, New Jersey","$29,535 ","Union Township, Hunterdon County, New Jersey, USA",40.6319365,-74.98557079,Hunterdon County
"Beattystown, New Jersey","$29,345 ","Beattystown, Warren County, New Jersey, 07870, USA",40.8131549,-74.8429446,Warren County
"High Bridge, New Jersey","$29,276 ","High Bridge, Hunterdon County, New Jersey, 08829, USA",40.6670454,-74.8957231,Hunterdon County
"Andover Township, New Jersey","$29,180 ","Andover Township, 625, Limecrest Road, Andover, Sussex County, New Jersey, 07860, USA",41.029043,-74.71794774,Sussex County
"Washington Township, Warren County, New Jersey","$29,141 ","Washington, Warren County, New Jersey, 07882, USA",40.7584326,-74.9793378,Warren County
"Frelinghuysen Township, New Jersey","$28,792 ","Frelinghuysen Way, Franklin Township, Somerset County, New Jersey, 08890, United States of America",40.5350279,-74.5682325,Somerset County
"Mount Olive Township, New Jersey","$28,691 ","Mt Olive Twp, Flanders - Drakestown Road, Mount Olive, Morris County, New Jersey, 07836, USA",40.8456239,-74.7442054,Morris County
"Glen Gardner, New Jersey","$28,647 ","Glen Gardner, Hunterdon County, New Jersey, USA",40.6967671,-74.9407248,Hunterdon County
"Holland Township, New Jersey","$28,581 ","Holland Township, Hunterdon County, New Jersey, 08848, USA",40.59804705,-75.12384149,Hunterdon County
"Hardyston Township, New Jersey","$28,457 ","Hardyston Township, Hardistonville, Sussex County, New Jersey, 07419, USA",41.1397911,-74.5887017,Sussex County
"Jefferson Township, New Jersey","$27,950 ","Jefferson Township, Morris County, New Jersey, USA",40.99359485,-74.56260184,Morris County
"Hope Township, New Jersey","$27,902 ","Hope, Warren County, New Jersey, 07844, USA",40.9112092,-74.9673943,Warren County
"Blairstown Township, New Jersey","$27,775 ","Blairstown, Warren County, New Jersey, 07825, USA",40.9828753,-74.9604501,Warren County
"Frenchtown, New Jersey","$27,765 ","Frenchtown, Hunterdon County, New Jersey, USA",40.5262138,-75.06156,Hunterdon County
"Great Meadows-Vienna, New Jersey","$27,688 ","Great Meadows-Vienna, Water Street, Vienna, Warren County, New Jersey, 07840, USA",40.872067,-74.89126911,Warren County
"Lake Telemark, New Jersey","$27,620 ","Lake Telemark, Morris County, New Jersey, 07842, USA",40.9567651,-74.4979341,Morris County
"Stanhope, New Jersey","$27,535 ","Stanhope, Sussex County, New Jersey, 07874, USA",40.9028765,-74.7090517,Sussex County
"Mine Hill Township, New Jersey","$27,119 ","Mine Hill, Morris County, New Jersey, 07803, USA",40.8778769,-74.5937701,Morris County
"Butler, New Jersey","$27,113 ","Butler, Morris County, New Jersey, USA",41.0037087,-74.3415394,Morris County
"Hopatcong, New Jersey","$26,698 ","Hopatcong, Sussex County, New Jersey, USA",40.9332051,-74.6600975,Sussex County
"Rockaway, New Jersey","$26,500 ","Rockaway, Morris County, New Jersey, USA",40.9012101,-74.5143232,Morris County
"Raritan, New Jersey","$26,420 ","Raritan, Somerset County, New Jersey, 08869, USA",40.5695474,-74.6329363,Somerset County
"Bloomsbury, New Jersey","$26,392 ","Bloomsbury, Hunterdon County, New Jersey, USA",40.6539892,-75.0865619,Hunterdon County
"Andover, New Jersey","$25,914 ","Andover, Sussex County, New Jersey, USA",40.9859311,-74.7421089,Sussex County
"Stockton, New Jersey","$25,712 ","Stockton, Hunterdon County, New Jersey, 08559:18938, USA",40.407883,-74.9782238,Hunterdon County
"Vernon Township, New Jersey","$25,250 ","Vernon Township Fire Department, Main Street, Vernon Valley Plaza, Vernon, Sussex County, New Jersey, 07462, USA",41.19747035,-74.48505604,Sussex County
"Wharton, New Jersey","$25,168 ","Wharton, Morris County, New Jersey, USA",40.8931546,-74.5818254,Morris County
"Milford, New Jersey","$25,039 ","Milford, Hunterdon County, New Jersey, USA",40.5687128,-75.0946169,Hunterdon County
"Stillwater Township, New Jersey","$24,933 ","Stillwater, Sussex County, New Jersey, 07855, USA",41.0359303,-74.878225,Sussex County
"Liberty Township, New Jersey","$24,743 ","Liberty, 378, US 22, Readington Township, Hunterdon County, New Jersey, 08807, USA",40.6190109,-74.7510399,Hunterdon County
"Hackettstown, New Jersey","$24,742 ","Hackettstown, Warren County, New Jersey, 07840, USA",40.8539878,-74.8290556,Warren County
"Hamburg, New Jersey","$24,651 ","Hamburg, Sussex County, New Jersey, 07419, USA",41.1534294,-74.5762713,Sussex County
"Knowlton Township, New Jersey","$24,631 ","Knowlton, Warren County, New Jersey, 07832, USA",40.9303752,-75.027952,Warren County
"Budd Lake, New Jersey","$24,581 ","Budd Lake, Morris County, New Jersey, 07828, USA",40.8712101,-74.7340523,Morris County
"Lopatcong Township, New Jersey","$24,333 ","Lopatcong Township Municipal Building, 232, South 3rd Street, Port Warren, Warren County, New Jersey, 08865, USA",40.7006213,-75.1717431,Warren County
"Ogdensburg, New Jersey","$24,305 ","Ogdensburg, Sussex County, New Jersey, 07439, USA",41.0817636,-74.5923824,Sussex County
"Flemington, New Jersey","$23,769 ","Flemington, Hunterdon County, New Jersey, USA",40.5130953,-74.8591333,Hunterdon County
"Oxford, New Jersey","$23,563 ","Oxford, Warren County, New Jersey, 07863, USA",40.8031545,-74.9896163,Warren County
"Oxford Township, New Jersey","$23,515 ","Oxford, Warren County, New Jersey, 07863, USA",40.8031545,-74.9896163,Warren County
"Netcong, New Jersey","$23,472 ","Netcong, Morris County, New Jersey, 07857, USA",40.8989877,-74.7065516,Morris County
"Somerville, New Jersey","$23,310 ","Somerville, Somerset County, New Jersey, USA",40.5742696,-74.60988,Somerset County
"Manville, New Jersey","$23,293 ","Manville, Somerset County, New Jersey, 08835, USA",40.5409367,-74.587657,Somerset County
"Belvidere, New Jersey","$23,231 ","Belvidere, Warren County, New Jersey, USA",40.82982,-75.0776747,Warren County
"Washington, New Jersey","$23,166 ","Washington, Warren County, New Jersey, 07882, USA",40.7584326,-74.9793378,Warren County
"North Plainfield, New Jersey","$22,791 ","North Plainfield, Somerset County, New Jersey, USA",40.6301025,-74.4273743,Somerset County
"Branchville, New Jersey","$22,748 ","Branchville, Sussex County, New Jersey, USA",41.1464852,-74.7523874,Sussex County
"Wantage Township, New Jersey","$22,488 ","Wantage, Sussex County, New Jersey, 07461, USA",41.2442617,-74.5507156,Sussex County
"Hampton, New Jersey","$22,440 ","Hampton, Hunterdon County, New Jersey, USA",40.7070446,-74.9560032,Hunterdon County
"Bound Brook, New Jersey","$22,395 ","Bound Brook, Somerset County, New Jersey, 08805, USA",40.5684363,-74.5384889,Somerset County
"South Bound Brook, New Jersey","$21,131 ","South Bound Brook, Somerset County, New Jersey, 08880, USA",40.5534365,-74.531544,Somerset County
"Montague Township, New Jersey","$20,676 ","Montague, Sussex County, New Jersey, 07892, USA",41.3031498,-74.7934993,Sussex County
"Victory Gardens, New Jersey","$20,616 ","Victory Gardens, Morris County, New Jersey, USA",40.8759325,-74.5423796,Morris County
"Newton, New Jersey","$20,577 ","Newton, Sussex County, New Jersey, USA",41.0582103,-74.7530943,Sussex County
"Alpha, New Jersey","$20,104 ","Alpha, Warren County, New Jersey, USA",40.6670439,-75.1573972,Warren County
"Franklin, New Jersey","$19,386 ","Franklin, Sussex County, New Jersey, 07416, USA",41.1220409,-74.5804378,Sussex County
"Sussex, New Jersey","$18,866 ","Sussex County, New Jersey, USA",41.133372,-74.6930393,Sussex County
"Phillipsburg, New Jersey","$18,452 ","Phillipsburg, Warren County, New Jersey, 08865, USA",40.6937099,-75.1901761,Warren County
"Dover, New Jersey","$18,056 ","Dover, Morris County, New Jersey, 07801, USA",40.883988,-74.5621025,Morris County
"Walpack Township, New Jersey","$17,624 ","Walpack-Flatbrook Road, Flatbrookville, Sussex County, New Jersey, USA",41.1050592,-74.9559875,Sussex County
